,City,Cloudiness,Country,Date,Humidity,Lat,Long,Max Temp,Wind Speed
0,vaini,64.0,IN,1545417023,95.0,15.34,74.49,68.84,2.39
1,itarema,20.0,BR,1545416434,60.0,-2.92,-39.92,89.41,14.47
2,dukat,0.0,RS,1545417024,94.0,42.44,22.31,25.6,1.72
3,codrington,40.0,AU,1545415200,94.0,-28.95,153.24,71.6,11.41
4,poum,75.0,MK,1545415200,86.0,41.28,20.71,37.4,3.36
5,butaritari,68.0,KI,1545417024,100.0,3.07,172.79,79.87,1.39
6,talnakh,0.0,RU,1545417025,0.0,69.49,88.39,-45.6,1.61
7,port alfred,68.0,ZA,1545417025,77.0,-33.59,26.89,74.92,20.85
8,bingol,0.0,TR,1545417025,84.0,38.88,40.49,25.19,2.39
9,aktash,,,,,,,,
10,busselton,0.0,AU,1545417025,91.0,-33.64,115.35,69.61,12.24
11,mount gambier,80.0,AU,1545415200,93.0,-37.83,140.78,50.0,5.82
12,develi,75.0,TR,1545414600,75.0,38.39,35.49,42.8,3.36
13,necochea,100.0,AR,1545416735,100.0,-38.55,-58.74,64.93,9.22
14,barrow,36.0,AR,1545417026,98.0,-38.31,-60.23,70.06,8.66
15,brae,92.0,GB,1545414600,93.0,60.4,-1.35,44.6,11.41
16,atuona,56.0,PF,1545417026,100.0,-9.8,-139.03,80.86,18.16
17,mataura,92.0,NZ,1545417027,100.0,-46.19,168.86,48.46,4.41
18,cidreira,64.0,BR,1545417027,85.0,-30.17,-50.22,80.09,12.35
19,tasiilaq,20.0,GL,1545414600,63.0,65.61,-37.64,26.6,7.43
20,tuktoyaktuk,90.0,CA,1545415200,75.0,69.44,-133.03,-14.81,4.7
21,saint george,20.0,GR,1545414600,93.0,39.45,22.34,44.6,1.61
22,southbridge,90.0,US,1545415740,100.0,42.08,-72.03,62.96,20.8
23,mumford,0.0,GH,1545417028,76.0,5.26,-0.76,81.94,6.98
24,kurmanayevka,64.0,RU,1545417028,74.0,52.51,52.07,0.76,5.64
25,sabang,76.0,PH,1545417029,100.0,13.72,123.58,76.9,6.76
26,punta arenas,75.0,CL,1545415200,58.0,-53.16,-70.91,55.4,20.8
27,faanui,80.0,PF,1545417029,100.0,-16.48,-151.75,83.11,13.8
28,saint-philippe,90.0,CA,1545415200,100.0,45.36,-73.48,45.86,9.17
29,chuy,92.0,UY,1545417030,100.0,-33.69,-53.46,68.03,20.29
30,taoudenni,0.0,ML,1545416494,25.0,22.68,-3.98,69.61,9.44
31,kautokeino,68.0,NO,1545416328,84.0,69.01,23.04,16.33,8.32
32,mehamn,0.0,NO,1545414600,74.0,71.03,27.85,28.4,32.21
33,ponta do sol,0.0,BR,1545417030,65.0,-20.63,-46,88.28,4.63
34,ushuaia,40.0,AR,1545415200,81.0,-54.81,-68.31,59.0,36.91
35,bluff,20.0,AU,1545417030,82.0,-23.58,149.07,75.19,3.4
36,ribeira brava,20.0,PT,1545413400,82.0,32.65,-17.07,66.2,6.93
37,maniitsoq,76.0,GL,1545417031,91.0,65.42,-52.9,26.99,5.41
38,saskylakh,68.0,RU,1545417031,45.0,71.97,114.09,-28.54,3.96
39,hasaki,90.0,JP,1545415200,87.0,35.73,140.83,46.4,5.82
40,collie,0.0,AU,1545416483,29.0,-33.36,116.15,69.25,13.02
41,waw,,,,,,,,
42,longjiang,0.0,CN,1545417032,56.0,47.33,123.18,-1.32,2.84
43,nikolskoye,75.0,RU,1545415200,85.0,59.7,30.79,10.4,11.18
44,rikitea,56.0,PF,1545417032,100.0,-23.12,-134.97,77.21,12.8
45,kodiak,90.0,US,1545414900,88.0,39.95,-94.76,34.16,3.36
46,albany,90.0,US,1545415980,90.0,42.65,-73.75,60.08,4.7
47,lagoa,0.0,PT,1545413400,72.0,37.14,-8.45,59.0,5.82
48,pevek,8.0,RU,1545417033,100.0,69.7,170.27,-27.78,5.64
49,le port,36.0,FR,1545417034,77.0,42.87,1.37,30.73,0.94
50,chivay,36.0,PE,1545417034,27.0,-15.64,-71.6,58.72,3.18
51,puerto ayora,20.0,EC,1545415200,62.0,-0.74,-90.35,84.2,5.82
52,bilibino,12.0,RU,1545417034,0.0,68.06,166.44,-43.26,2.62
53,jamestown,0.0,AU,1545417035,86.0,-33.21,138.6,47.51,8.43
54,illoqqortoormiut,,,,,,,,
55,pundaguitan,80.0,PH,1545416495,100.0,6.37,126.17,77.84,8.77
56,acapulco,20.0,MX,1545414360,58.0,16.86,-99.88,86.0,6.93
57,sorland,75.0,NO,1545414600,69.0,67.67,12.69,37.4,4.7
58,port elizabeth,90.0,US,1545416280,96.0,39.31,-74.98,60.08,9.17
59,kalemie,88.0,CD,1545417035,100.0,-5.95,29.2,75.01,6.64
60,goma,100.0,CD,1545417036,99.0,-1.67,29.23,62.68,2.39
61,longyearbyen,75.0,NO,1545414600,69.0,78.22,15.63,35.6,16.11
62,kaitangata,92.0,NZ,1545417036,89.0,-46.28,169.85,47.38,6.98
63,svetlogorsk,64.0,RU,1545415200,84.0,53.14,59.15,5.0,6.64
64,galle,1.0,US,1545414960,27.0,29.74,-97.91,61.34,3.36
65,wenling,92.0,CN,1545417037,97.0,28.38,121.38,55.12,3.85
66,tuatapere,100.0,NZ,1545417037,100.0,-46.13,167.69,48.82,9.89
67,pyapon,68.0,MM,1545417037,100.0,16.29,95.68,74.56,5.64
68,dikson,8.0,RU,1545417037,100.0,73.51,80.55,-13.11,5.64
69,attawapiskat,,,,,,,,
70,sault sainte marie,90.0,CA,1545415200,71.0,46.49,-84.36,28.04,10.29
71,kapaa,40.0,US,1545414960,65.0,22.08,-159.32,73.04,12.75
72,victoria,75.0,BN,1545415200,94.0,5.28,115.24,78.8,3.06
73,marsh harbour,48.0,BS,1545416480,100.0,26.54,-77.06,75.91,28.68
74,thompson,90.0,CA,1545416220,77.0,55.74,-97.86,3.2,8.05
75,isangel,68.0,VU,1545417038,100.0,-19.55,169.27,76.54,10.11
76,lorengau,92.0,PG,1545417038,100.0,-2.02,147.27,78.29,12.68
77,macomb,90.0,US,1545414900,86.0,40.46,-90.67,32.0,13.87
78,barentsburg,,,,,,,,
79,avarua,75.0,CK,1545415200,78.0,-21.21,-159.78,82.4,12.75
80,geraldton,90.0,CA,1545415200,78.0,49.72,-86.95,8.6,11.41
81,bonthe,20.0,SL,1545416496,40.0,7.53,-12.5,93.82,2.84
82,san luis,0.0,AR,1545416962,37.0,-33.3,-66.34,82.88,4.85
83,comodoro rivadavia,0.0,AR,1545415200,22.0,-45.87,-67.48,78.8,12.75
84,richards bay,88.0,ZA,1545417040,90.0,-28.77,32.06,70.42,7.76
85,aripuana,8.0,BR,1545417040,60.0,-9.17,-60.63,89.95,2.73
86,namatanai,88.0,PG,1545417040,100.0,-3.66,152.44,77.8,7.65
87,kropotkin,32.0,RU,1545417040,99.0,45.43,40.58,32.71,7.76
88,honiara,76.0,SB,1545417041,100.0,-9.43,159.96,74.69,1.5
89,naliya,0.0,IN,1545417041,77.0,23.26,68.83,50.21,3.62
90,krasnoye-na-volge,90.0,RU,1545415200,84.0,57.51,41.24,5.0,4.47
91,sambava,0.0,MG,1545416867,100.0,-14.27,50.17,81.04,13.8
92,carballo,20.0,ES,1545415200,82.0,43.21,-8.69,59.0,24.16
93,barcelos,75.0,PT,1545413400,100.0,41.53,-8.62,55.4,13.87
94,tateyama,92.0,JP,1545417041,93.0,36.66,137.31,37.3,1.61
95,souillac,90.0,FR,1545415200,100.0,45.6,-0.6,55.4,19.46
96,leningradskiy,0.0,RU,1545417041,92.0,69.38,178.42,-10.86,14.81
97,east london,40.0,ZA,1545415200,78.0,-33.02,27.91,71.6,18.34
98,taybad,0.0,IR,1545417042,91.0,34.74,60.78,31.04,0.94
99,invermere,64.0,CA,1545417042,55.0,50.51,-116.03,23.93,3.06
100,neufchateau,90.0,FR,1545415200,87.0,48.35,5.7,53.6,23.04
101,bengkulu,,,,,,,,
102,sungai besar,75.0,MY,1545415200,100.0,3.68,100.99,75.2,10.33
103,hobart,75.0,AU,1545415200,87.0,-42.88,147.33,51.8,6.93
104,bredasdorp,64.0,ZA,1545415200,77.0,-34.53,20.04,69.8,4.7
105,castro,0.0,CL,1545415200,63.0,-42.48,-73.76,64.4,9.17
106,cuci,90.0,RO,1545415200,100.0,46.46,24.16,28.4,2.24
107,ust-kalmanka,76.0,RU,1545417043,74.0,52.12,83.31,5.89,17.27
108,taolanaro,,,,,,,,
109,upernavik,68.0,GL,1545417044,100.0,72.79,-56.15,1.34,13.91
110,new norfolk,75.0,AU,1545415200,87.0,-42.78,147.06,51.8,6.93
111,qaanaaq,12.0,GL,1545417044,82.0,77.48,-69.36,-9.24,4.41
112,mana,0.0,RS,1545413400,100.0,43.52,20.24,39.2,1.12
113,dipkarpaz,,,,,,,,
114,yar-sale,68.0,RU,1545417044,95.0,66.83,70.83,-7.71,21.52
115,mahebourg,75.0,MU,1545415200,88.0,-20.41,57.7,77.0,14.99
116,teya,40.0,MX,1545414480,36.0,21.05,-89.07,77.0,23.04
117,toamasina,40.0,MG,1545415200,88.0,-18.17,49.38,77.0,2.24
118,vanimo,92.0,PG,1545416474,100.0,-2.67,141.3,81.58,1.72
119,udachnyy,12.0,RU,1545417045,79.0,66.42,112.4,-39.07,4.29
120,ribeira grande,75.0,PT,1545415200,93.0,38.52,-28.7,62.6,8.05
121,khatanga,48.0,RU,1545417045,59.0,71.98,102.47,-12.3,5.97
122,gangotri,,,,,,,,
123,buba,0.0,GW,1545417046,49.0,11.59,-14.99,89.18,6.76
124,carnarvon,8.0,ZA,1545417046,11.0,-30.97,22.13,80.63,12.01
125,vao,76.0,EE,1545417046,88.0,59.1,26.19,14.8,8.21
126,dingle,44.0,PH,1545417046,98.0,11.0,122.67,74.24,6.53
127,yen bai,92.0,VN,1545417046,95.0,21.7,104.87,66.14,1.72
128,lebu,40.0,ET,1545415200,62.0,8.96,38.73,57.2,9.17
129,tazovskiy,0.0,RU,1545417046,69.0,67.47,78.7,-35.79,13.24
130,hithadhoo,0.0,MV,1545417047,100.0,-0.6,73.08,81.76,5.53
131,vadso,75.0,NO,1545414600,86.0,70.07,29.75,26.6,23.04
132,fortuna,0.0,ES,1545415200,76.0,38.18,-1.13,53.6,3.36
133,katsuura,75.0,JP,1545415380,100.0,33.93,134.5,55.4,4.7
134,narsaq,0.0,GL,1545417047,48.0,60.91,-46.05,8.09,4.97
135,oranjemund,0.0,ZA,1545417047,92.0,-28.55,16.43,64.39,16.26
136,cheuskiny,,,,,,,,
137,yarada,75.0,IN,1545415200,83.0,17.65,83.27,73.4,5.82
138,pisco,0.0,PE,1545415200,30.0,-13.71,-76.2,71.6,10.29
139,dunhua,0.0,CN,1545417048,75.0,43.37,128.23,18.58,6.98
140,hermanus,68.0,ZA,1545417048,66.0,-34.42,19.24,69.88,3.51
141,belushya guba,,,,,,,,
142,hamilton,75.0,BM,1545414900,78.0,32.3,-64.78,71.6,19.46
143,skhimatarion,,,,,,,,
144,bowen,90.0,AU,1545415200,94.0,-20.01,148.25,78.8,6.93
145,olinda,75.0,EC,1545415200,78.0,-2.03,-79.75,80.6,8.05
146,iqaluit,90.0,CA,1545415200,77.0,63.75,-68.52,1.4,16.11
147,deputatskiy,24.0,RU,1545417049,0.0,69.3,139.9,-37.77,2.06
148,ilulissat,90.0,GL,1545414600,92.0,69.22,-51.1,23.0,9.17
149,amarante do maranhao,36.0,BR,1545417049,61.0,-5.57,-46.74,88.51,4.18
150,pionerskiy,56.0,RU,1545417049,72.0,61.2,62.86,8.99,7.09
151,matagami,12.0,NG,1545417050,38.0,9.67,8.4,71.99,5.3
152,arraial do cabo,40.0,BR,1545415200,74.0,-22.97,-42.02,84.2,6.93
153,ibra,0.0,OM,1545417050,88.0,22.69,58.55,52.28,2.17
154,krasnokholm,44.0,RU,1545417050,65.0,51.6,54.16,0.26,3.06
155,jiuquan,88.0,CN,1545416496,81.0,39.73,98.49,9.53,4.18
156,vila velha,0.0,BR,1545415200,66.0,-3.71,-38.6,86.0,17.22
157,sao filipe,76.0,CV,1545417051,83.0,14.9,-24.5,78.07,13.02
158,hilo,20.0,US,1545414780,87.0,19.71,-155.08,66.92,5.82
159,esperance,20.0,TT,1545415200,62.0,10.24,-61.45,86.0,13.87
160,vadlapudi,36.0,IN,1545417051,91.0,14.32,79.8,69.34,2.95
161,quatre cocos,75.0,MU,1545415200,88.0,-20.21,57.76,77.0,14.99
162,nome,1.0,US,1545416100,29.0,30.04,-94.42,60.98,13.87
163,cayenne,75.0,GF,1545415200,70.0,4.94,-52.33,84.2,14.99
164,katangli,0.0,RU,1545417052,100.0,51.71,143.23,10.39,11.23
165,lompoc,75.0,US,1545416100,87.0,34.64,-120.46,62.96,3.36
166,port lincoln,56.0,AU,1545417052,100.0,-34.72,135.86,57.68,10.89
167,airai,44.0,TL,1545417052,91.0,-8.93,125.41,71.5,1.05
168,etchojoa,5.0,MX,1545414060,29.0,26.91,-109.62,75.2,5.82
169,saint anthony,90.0,US,1545414960,72.0,43.97,-111.68,33.08,23.04
170,taltal,12.0,CL,1545416461,74.0,-25.41,-70.49,68.21,2.95
171,guarapari,20.0,BR,1545415200,62.0,-20.67,-40.5,87.8,19.46
172,jining,92.0,CN,1545417053,89.0,35.41,116.58,36.85,3.18
173,steinbach,90.0,CA,1545411600,78.0,49.53,-96.69,12.2,16.11
174,goderich,92.0,CA,1545417053,100.0,43.74,-81.71,37.57,18.72
175,waipawa,36.0,NZ,1545416464,91.0,-39.94,176.59,55.79,16.49
176,mar del plata,0.0,AR,1545416853,25.0,-46.43,-67.52,82.88,9.55
177,lasa,20.0,CY,1545415200,81.0,34.92,32.53,55.4,8.05
178,broome,40.0,GB,1545414960,87.0,52.47,1.45,49.46,10.29
179,bonavista,80.0,CA,1545417053,99.0,48.65,-53.11,32.08,19.73
180,antofagasta,20.0,CL,1545415200,60.0,-23.65,-70.4,68.0,12.75
181,pingliang,88.0,CN,1545417054,82.0,35.54,106.68,23.84,3.4
182,zlutice,90.0,CZ,1545415740,93.0,50.09,13.16,46.4,10.29
183,jijiga,0.0,ET,1545417054,90.0,9.35,42.8,52.01,3.06
184,opuwo,0.0,NA,1545417054,14.0,-18.06,13.84,83.83,11.01
185,torbay,40.0,CA,1545415200,100.0,47.66,-52.73,37.4,14.99
186,priiskovyy,68.0,RU,1545417054,72.0,51.93,116.63,-3.84,3.74
187,buchanan,75.0,LR,1545415200,79.0,5.88,-10.05,84.2,6.2
188,moyale,0.0,ET,1545417055,48.0,3.52,39.05,70.01,6.42
189,umm kaddadah,0.0,SD,1545417055,21.0,13.6,26.69,63.53,12.01
190,rovaniemi,0.0,FI,1545416400,92.0,66.5,25.72,6.8,3.36
191,kargasok,68.0,RU,1545417055,68.0,59.06,80.87,14.26,10.0
192,kiama,90.0,AU,1545415200,93.0,-34.67,150.86,57.2,9.17
193,san cristobal,75.0,EC,1545415200,52.0,-0.39,-78.55,68.0,6.93
194,cape town,75.0,ZA,1545415200,83.0,-33.93,18.42,69.8,17.22
195,meulaboh,0.0,ID,1545417056,100.0,4.14,96.13,80.05,6.76
196,walvis bay,0.0,NA,1545417056,100.0,-22.95,14.51,63.04,6.98
197,xinyu,92.0,CN,1545417056,100.0,27.8,114.93,54.4,3.74
198,chulym,92.0,RU,1545417057,82.0,55.09,80.97,8.23,25.55
199,port keats,44.0,AU,1545416494,95.0,-14.25,129.55,83.06,6.98
200,casper,1.0,US,1545414780,38.0,42.87,-106.31,44.96,29.97
201,tres arroyos,36.0,AR,1545417057,98.0,-38.38,-60.28,70.06,8.66
202,luderitz,0.0,NA,1545416869,68.0,-26.65,15.16,65.38,18.5
203,port hardy,90.0,CA,1545415200,94.0,50.7,-127.42,33.8,5.82
204,alofi,75.0,NU,1545415200,88.0,-19.06,-169.92,78.8,3.36
205,kungurtug,0.0,RU,1545417057,51.0,50.6,97.53,-22.02,4.29
206,souris,90.0,CA,1545415200,94.0,46.36,-62.25,35.6,10.29
207,tandil,76.0,AR,1545417002,98.0,-37.33,-59.14,64.57,18.28
208,saquena,76.0,PE,1545417058,75.0,-4.67,-73.52,85.0,3.85
209,bethel,1.0,US,1545414960,77.0,60.79,-161.76,-13.01,11.41
210,shymkent,8.0,KZ,1545415200,85.0,42.31,69.59,19.4,2.24
211,toliary,,,,,,,,
212,mys shmidta,,,,,,,,
213,artyk,,,,,,,,
214,provideniya,64.0,RU,1545417059,100.0,64.42,-173.23,2.11,10.67
215,dubbo,0.0,AU,1545415200,52.0,-32.25,148.6,64.4,10.29
216,praia,40.0,BR,1545411600,42.0,-20.25,-43.81,86.0,3.85
217,nouadhibou,0.0,MR,1545415200,33.0,20.93,-17.03,77.0,8.05
218,ulfborg,75.0,DK,1545414600,100.0,56.27,8.32,41.0,11.41
219,sergiyevsk,80.0,RU,1545417059,83.0,53.94,51.16,3.46,8.66
220,mae hong son,24.0,MM,1545417060,90.0,19.3,97.96,62.99,1.28
221,tual,76.0,ID,1545417060,100.0,-5.67,132.75,80.5,14.58
222,havre-saint-pierre,90.0,CA,1545415200,86.0,50.23,-63.6,26.6,12.75
223,aldan,68.0,RU,1545417060,73.0,58.61,125.39,-0.42,3.29
224,ilhabela,20.0,BR,1545417060,98.0,-23.78,-45.36,79.01,8.1
225,guarapuava,0.0,BR,1545417060,62.0,-25.4,-51.46,83.74,6.64
226,nizhneyansk,,,,,,,,
227,chimbote,8.0,PE,1545416894,79.0,-9.08,-78.59,74.78,6.08
228,jackson,90.0,US,1545414960,85.0,35.61,-88.82,41.0,13.87
229,beroroha,68.0,MG,1545417061,77.0,-21.68,45.17,76.45,8.21
230,kerki,,,,,,,,
231,cap-chat,88.0,CA,1545417061,94.0,49.1,-66.68,32.48,1.95
232,fayaoue,68.0,NC,1545417061,100.0,-20.65,166.53,78.34,14.47
233,bairiki,,,,,,,,
234,bambous virieux,75.0,MU,1545415200,88.0,-20.34,57.76,77.0,14.99
235,abha,40.0,SA,1545411600,93.0,18.22,42.5,60.8,4.7
236,lekoni,32.0,GA,1545417062,79.0,-1.58,14.26,75.55,4.85
237,nara,75.0,JP,1545415200,93.0,34.68,135.8,51.8,9.17
238,kisangani,44.0,CD,1545417062,52.0,0.52,25.21,82.93,3.18
239,lata,0.0,IN,1545417062,73.0,30.78,78.62,18.31,1.72
240,weligama,24.0,LK,1545417062,96.0,5.97,80.42,77.98,6.64
241,antalaha,20.0,MG,1545417062,76.0,-14.9,50.28,79.73,11.12
242,yellowknife,90.0,CA,1545415200,92.0,62.45,-114.38,10.4,2.24
243,rawson,0.0,AR,1545416958,29.0,-43.3,-65.11,87.11,4.29
244,razdolnoye,75.0,RU,1545415200,86.0,43.7,44.53,33.8,4.47
245,sorong,68.0,ID,1545417063,100.0,-0.86,131.25,78.56,6.76
246,san patricio,56.0,PY,1545417063,82.0,-26.98,-56.83,83.11,5.19
247,guerrero negro,8.0,MX,1545417063,38.0,27.97,-114.04,71.32,1.72
248,mount pleasant,1.0,US,1545416100,42.0,33.16,-94.97,53.6,9.17
249,livingston,90.0,US,1545415080,77.0,32.58,-88.19,44.96,11.41
250,longido,56.0,TZ,1545417064,53.0,-2.73,36.7,71.81,8.21
251,lubumbashi,92.0,CD,1545417064,100.0,-11.66,27.48,64.16,7.99
252,georgetown,40.0,GY,1545415200,70.0,6.8,-58.16,86.0,13.87
253,salalah,0.0,OM,1545414600,56.0,17.01,54.1,73.4,5.82
254,aklavik,90.0,CA,1545415200,76.0,68.22,-135.01,-5.81,3.36
255,petropavlovsk-kamchatskiy,40.0,RU,1545415200,79.0,53.05,158.65,19.4,4.47
256,southampton,75.0,GB,1545414600,76.0,50.9,-1.4,51.8,8.05
257,aljezur,0.0,PT,1545417066,100.0,37.31,-8.8,58.76,3.06
258,palu,76.0,ID,1545417066,89.0,-0.9,119.87,65.33,1.72
259,pauini,56.0,BR,1545417066,77.0,-7.71,-67,84.64,4.85
260,kalmunai,88.0,LK,1545416493,100.0,7.42,81.82,72.89,2.17
261,bonfim,20.0,GY,1545417066,60.0,3.36,-59.84,89.23,15.48
262,paradwip,,,,,,,,
263,inirida,24.0,CO,1545417067,75.0,3.87,-67.92,84.19,2.95
264,luau,80.0,CD,1545417067,74.0,-10.7,22.23,72.22,2.51
265,kita,75.0,JP,1545415200,57.0,35.76,139.74,50.0,5.82
266,mizdah,0.0,LY,1545417067,59.0,31.45,12.98,46.21,6.87
267,cabo san lucas,5.0,MX,1545414420,69.0,22.89,-109.91,80.6,5.82
268,tucurui,56.0,BR,1545417068,76.0,-3.77,-49.67,85.36,2.95
269,papetoai,20.0,PF,1545415200,70.0,-17.5,-149.87,84.2,9.17
270,abu jubayhah,,,,,,,,
271,hualmay,80.0,PE,1545417068,73.0,-11.1,-77.61,74.65,5.64
272,leh,0.0,IN,1545417068,0.0,34.16,77.58,-41.14,1.61
273,kamenskoye,,,,,,,,
274,kavieng,64.0,PG,1545417068,100.0,-2.57,150.8,80.99,7.43
275,nainpur,0.0,IN,1545417068,84.0,22.43,80.11,45.22,2.95
276,mildura,0.0,AU,1545415200,71.0,-34.18,142.16,55.4,9.17
277,yarovoye,32.0,RU,1545417069,67.0,52.92,78.56,-0.33,12.24
278,yabrud,0.0,SY,1545415200,81.0,33.97,36.66,46.4,2.24
279,knysna,0.0,ZA,1545415200,88.0,-34.04,23.05,68.0,4.7
280,luba,68.0,PH,1545417069,91.0,17.32,120.7,70.33,2.39
281,tabou,8.0,CI,1545417069,99.0,4.42,-7.36,83.38,14.36
282,tsihombe,,,,,,,,
283,visby,75.0,SE,1545414600,79.0,57.64,18.3,26.6,4.7
284,westport,75.0,IE,1545413400,100.0,53.8,-9.52,44.6,11.41
285,tagusao,88.0,PH,1545417070,100.0,9.19,117.81,75.86,5.64
286,fairbanks,1.0,US,1545415080,75.0,64.84,-147.72,-23.08,2.39
287,biak,76.0,ID,1545417073,100.0,-0.91,122.88,74.06,4.63
288,itoman,0.0,JP,1545415200,78.0,26.12,127.67,71.6,5.82
289,saint peters,90.0,US,1545416100,80.0,35.62,-89.39,42.08,17.22
290,kaseda,40.0,JP,1545414360,93.0,31.42,130.32,55.4,3.36
291,atar,0.0,MR,1545417074,12.0,20.52,-13.05,80.77,10.56
292,port hedland,0.0,AU,1545415200,65.0,-20.31,118.58,77.0,8.05
293,lavrentiya,76.0,RU,1545417074,100.0,65.58,-170.99,9.53,20.07
294,san miguel,75.0,AR,1545415200,54.0,-34.54,-58.72,78.8,14.99
295,kruisfontein,68.0,ZA,1545417076,71.0,-34.0,24.73,72.89,15.59
296,grand river south east,,,,,,,,
297,port hawkesbury,1.0,CA,1545415200,80.0,45.62,-61.36,35.6,5.82
298,oudtshoorn,0.0,ZA,1545415200,88.0,-33.59,22.2,68.0,4.7
299,galveston,90.0,US,1545417300,100.0,40.58,-86.19,38.84,20.8
300,solnechnyy,0.0,RU,1545417077,33.0,50.72,136.64,-22.47,2.39
301,phan rang,,,,,,,,
302,verkhnevilyuysk,0.0,RU,1545417077,45.0,63.45,120.31,-28.05,2.95
303,grindavik,20.0,IS,1545415200,100.0,63.84,-22.43,32.0,9.17
304,saint-pierre,90.0,FR,1545415200,100.0,48.95,4.24,55.4,17.22
305,waspan,,,,,,,,
306,tarakan,88.0,ID,1545417078,100.0,3.3,117.63,74.51,5.41
307,nyurba,0.0,RU,1545417078,37.0,63.29,118.35,-24.45,2.39
308,mitsamiouli,20.0,KM,1545411600,78.0,-11.38,43.28,82.4,3.36
309,bahia blanca,0.0,AR,1545417079,72.0,-38.72,-62.27,76.76,9.78
310,simplicio mendes,76.0,BR,1545417079,30.0,-7.85,-41.91,97.15,7.76
311,ngukurr,,,,,,,,
312,trincomalee,92.0,LK,1545417079,98.0,8.58,81.23,73.48,12.57
313,wuwei,0.0,CN,1545417079,59.0,37.93,102.64,-2.94,1.72
314,sooke,75.0,CA,1545415200,100.0,48.37,-123.73,43.34,4.7
315,kolpashevo,80.0,RU,1545417080,79.0,58.31,82.9,14.21,14.47
316,mahon,75.0,IE,1545413400,100.0,51.89,-8.4,46.4,9.17
317,lere,0.0,TD,1545417080,29.0,9.66,14.23,76.81,9.22
318,markova,0.0,RU,1545417081,64.0,52.21,104.21,-14.91,4.41
319,igrim,88.0,RU,1545417081,72.0,63.19,64.42,13.0,8.66
320,lastoursville,36.0,GA,1545417081,86.0,-0.81,12.73,77.62,2.17
321,port augusta,40.0,AU,1545415200,72.0,-32.49,137.76,60.8,14.99
322,saldanha,76.0,PT,1545417081,97.0,41.42,-6.55,49.13,6.31
323,tautira,20.0,PF,1545415200,70.0,-17.73,-149.15,84.2,9.17
324,oulainen,12.0,FI,1545417081,83.0,64.27,24.8,3.46,5.86
325,pangody,64.0,RU,1545417085,74.0,65.85,74.49,-16.84,17.05
326,safford,1.0,US,1545414660,42.0,32.83,-109.71,50.0,3.74
327,ahipara,92.0,NZ,1545417085,100.0,-35.17,173.16,60.61,2.39
328,flinders,90.0,AU,1545415200,93.0,-34.58,150.85,57.2,9.17
329,alice springs,24.0,AU,1545415200,23.0,-23.7,133.88,75.2,9.17
330,saryozek,0.0,KZ,1545417086,49.0,44.36,77.98,-0.33,6.53
331,arecibo,1.0,PR,1545414600,74.0,18.47,-66.72,84.2,16.11
332,cockburn town,0.0,TC,1545417086,99.0,21.46,-71.14,80.32,18.95
333,shimoda,12.0,JP,1545417086,100.0,34.7,138.93,60.7,15.82
334,klaksvik,80.0,FO,1545414600,87.0,62.23,-6.59,42.8,4.7
335,yomitan,,,,,,,,
336,toungoo,,,,,,,,
337,nyimba,76.0,ZM,1545417087,96.0,-14.56,30.81,70.46,2.84
338,wilmington,90.0,US,1545416100,100.0,39.75,-75.55,60.08,6.93
339,martapura,92.0,ID,1545417087,100.0,-3.41,114.85,78.52,5.75
340,porto walter,24.0,BR,1545416851,55.0,-8.27,-72.74,90.22,2.95
341,weihai,56.0,CN,1545417087,100.0,37.5,122.11,46.61,12.57
342,coromandel,36.0,NZ,1545415200,87.0,-36.76,175.5,60.8,8.05
343,college,1.0,US,1545415080,75.0,64.86,-147.8,-20.03,2.39
344,porto santo,,,,,,,,
345,padang,44.0,ID,1545417087,100.0,-0.92,100.36,81.53,3.96
346,puerto escondido,40.0,MX,1545414000,69.0,15.86,-97.07,80.6,14.99
347,hauterive,75.0,FR,1545415200,62.0,46.09,3.45,57.2,18.34
348,axim,0.0,GH,1545417088,95.0,4.87,-2.24,84.91,12.8
349,isiolo,0.0,KE,1545417088,84.0,0.35,37.58,66.14,2.06
350,road town,20.0,VG,1545415200,51.0,18.42,-64.62,86.0,9.17
351,chapais,90.0,CA,1545416340,95.0,49.78,-74.86,32.0,10.29
352,dong xoai,36.0,VN,1545417089,86.0,11.53,106.92,76.81,5.41
353,wiarton,90.0,CA,1545415200,93.0,44.74,-81.13,35.6,9.17
354,ruatoria,,,,,,,,
355,bilma,36.0,NE,1545417089,43.0,18.69,12.92,61.46,5.86
356,coahuayana,0.0,MX,1545417089,38.0,18.62,-100.35,76.9,3.18
357,shelburne,90.0,CA,1545415200,100.0,44.08,-80.2,41.0,11.41
358,mitu,76.0,IR,1545417089,94.0,36.2,46.09,29.96,2.17
359,kieta,92.0,PG,1545417089,100.0,-6.22,155.63,78.52,3.4
360,monreale,0.0,IT,1545416400,81.0,39.25,9.12,55.4,5.82
361,norman wells,90.0,CA,1545415200,83.0,65.28,-126.83,-14.81,3.36
362,vilyuysk,0.0,RU,1545417090,41.0,63.75,121.63,-26.56,2.28
363,benxi,12.0,CN,1545415200,100.0,41.29,123.76,24.8,4.47
364,gat,0.0,SN,1545415200,24.0,14.69,-16.54,93.2,2.24
365,kysyl-syr,0.0,RU,1545417090,41.0,63.9,122.77,-26.61,2.73
366,mumbwa,32.0,ZM,1545417091,88.0,-14.99,27.06,71.95,7.99
367,alnashi,92.0,RU,1545417091,84.0,56.18,52.48,9.49,7.65
368,dobrinka,88.0,RU,1545417091,92.0,52.17,40.48,15.29,10.22
369,ruteng,12.0,ID,1545417091,88.0,-8.61,120.46,70.6,4.07
370,fremont,90.0,US,1545414960,83.0,37.55,-121.99,59.0,4.63
371,chokurdakh,36.0,RU,1545417091,41.0,70.62,147.9,-26.43,8.21
372,sentyabrskiy,,,,,,,,
373,samarai,92.0,PG,1545417092,100.0,-10.62,150.67,79.01,11.79
374,banff,64.0,CA,1545416830,57.0,51.18,-115.57,17.68,4.74
375,awbari,20.0,LY,1545417092,47.0,26.59,12.77,53.18,8.77
376,tumannyy,,,,,,,,
377,batemans bay,76.0,AU,1545417092,100.0,-35.71,150.18,54.67,11.23
378,sawakin,100.0,SD,1545417092,91.0,19.1,37.33,72.31,10.78
379,sinnamary,32.0,GF,1545417092,100.0,5.38,-52.96,76.45,9.44
380,olden,75.0,NO,1545414600,52.0,61.84,6.81,41.0,9.17
381,tabiauea,,,,,,,,
382,miri,20.0,NG,1545417092,39.0,10.31,9.75,68.71,5.75
383,kenai,90.0,US,1545414960,88.0,60.55,-151.26,21.92,16.11
384,duz,,,,,,,,
385,bacuit,,,,,,,,
386,wilkie,75.0,CA,1545415680,94.0,52.41,-108.71,32.0,24.16
387,krasnoselkup,,,,,,,,
388,erfurt,20.0,DE,1545416400,71.0,50.98,11.03,51.8,25.28
389,altay,0.0,CN,1545417094,35.0,47.83,88.13,-27.64,2.17
390,port victoria,36.0,AU,1545417094,100.0,-34.5,137.49,58.45,11.01
391,ozinki,44.0,RU,1545417094,82.0,51.2,49.73,4.0,7.43
392,vacaresti,90.0,RO,1545415200,92.0,44.85,25.48,28.4,8.05
393,taranagar,0.0,IN,1545417094,74.0,28.67,75.04,37.48,2.73
394,neyvo-rudyanka,64.0,RU,1545417094,86.0,57.34,60.13,6.61,7.54
395,chipinge,48.0,ZW,1545417094,84.0,-20.19,32.62,74.74,7.76
396,wanaka,100.0,NZ,1545417095,98.0,-44.7,169.14,43.46,2.39
397,choix,0.0,MX,1545417095,42.0,26.71,-108.33,67.31,2.51
398,cherskiy,48.0,RU,1545417095,60.0,68.75,161.3,-33.54,2.73
399,preston,75.0,GB,1545416400,100.0,53.76,-2.71,48.2,14.99
400,mayskiy,90.0,RU,1545415200,86.0,43.63,44.06,33.8,3.62
401,arman,12.0,RU,1545417096,69.0,59.7,150.17,-5.86,3.96
402,oda,92.0,JP,1545417096,100.0,35.19,132.5,53.5,5.64
403,coquimbo,75.0,CL,1545415200,72.0,-29.95,-71.34,62.6,13.87
404,tshela,80.0,CD,1545417096,91.0,-4.99,12.94,74.83,4.85
405,kiruna,90.0,SE,1545414600,92.0,67.86,20.23,19.4,10.29
406,rameswaram,100.0,IN,1545417096,100.0,9.28,79.3,81.49,16.71
407,amderma,,,,,,,,
408,bapatla,8.0,IN,1545417096,92.0,15.9,80.47,69.29,5.41
409,ambagarh chauki,0.0,IN,1545417097,78.0,20.78,80.75,52.15,3.62
410,qianan,0.0,CN,1545417097,75.0,44.99,124.06,11.92,6.53
411,long beach,90.0,US,1545414960,65.0,30.35,-89.15,51.98,17.22
412,vaitupu,,,,,,,,
413,san juan,90.0,PH,1545415200,100.0,14.6,121.03,77.0,4.85
414,koropion,,,,,,,,
415,kloulklubed,90.0,PW,1545414600,88.0,7.04,134.26,78.8,5.75
416,naze,76.0,NG,1545411600,43.0,5.43,7.07,87.8,3.36
417,cloquet,90.0,US,1545416100,80.0,46.72,-92.46,21.2,3.36
418,pringsewu,64.0,ID,1545417098,95.0,-5.36,104.98,72.26,2.39
419,jalu,64.0,LY,1545417098,61.0,29.03,21.55,52.6,6.31
420,kamenka,88.0,RU,1545417099,86.0,53.19,44.05,12.28,7.43
421,pangkalanbuun,92.0,ID,1545417099,96.0,-2.68,111.62,74.11,3.62
422,maltahohe,0.0,NA,1545417099,18.0,-24.83,16.98,82.34,3.62
423,ancud,0.0,CL,1545415200,63.0,-41.87,-73.83,64.4,9.17
424,brenham,1.0,US,1545416100,35.0,30.17,-96.4,61.52,5.82
425,vardo,90.0,US,1545416100,96.0,39.62,-77.74,68.0,3.36
426,ubinskoye,76.0,RU,1545417100,84.0,55.31,79.68,7.69,25.1
427,ylivieska,12.0,FI,1545417100,83.0,64.07,24.53,3.46,5.86
428,jumla,0.0,NP,1545417103,59.0,29.28,82.18,6.38,1.95
429,milazzo,40.0,IT,1545414900,71.0,38.22,15.24,57.2,1.12
430,mazamet,0.0,FR,1545415200,81.0,43.49,2.38,50.0,1.12
431,laguna,5.0,MX,1545414060,29.0,27.52,-110.01,75.2,5.82
432,karratha,8.0,AU,1545417104,69.0,-20.74,116.85,73.3,11.79
433,nuuk,90.0,GL,1545414600,80.0,64.17,-51.74,30.2,11.41
434,yulara,0.0,AU,1545415200,28.0,-25.24,130.99,73.4,8.05
435,iskateley,92.0,RU,1545417104,94.0,67.68,53.15,24.74,20.4
436,turan,48.0,RU,1545417105,51.0,52.15,93.92,-12.3,2.17
437,tomatlan,0.0,MX,1545417105,63.0,19.93,-105.25,78.25,3.18
438,touros,40.0,BR,1545415200,62.0,-5.2,-35.46,86.0,17.22
439,coari,24.0,BR,1545417105,82.0,-4.09,-63.14,84.46,3.62
440,hay river,90.0,CA,1545415680,92.0,60.82,-115.79,10.4,11.41
441,wawa,0.0,NG,1545417106,40.0,9.9,4.41,77.48,3.96
442,nantucket,90.0,US,1545414960,100.0,41.28,-70.1,55.4,23.04
443,kant,90.0,KG,1545415200,85.0,42.89,74.85,17.6,2.24
444,caravelas,0.0,BR,1545417106,100.0,-17.73,-39.27,80.36,20.74
445,kostomuksha,80.0,RU,1545417106,82.0,64.59,30.6,9.94,2.84
446,okhotsk,8.0,RU,1545417106,100.0,59.36,143.24,-2.71,8.43
447,samusu,,,,,,,,
448,koumac,8.0,NC,1545417107,96.0,-20.56,164.28,73.61,3.62
449,huarmey,92.0,PE,1545417107,77.0,-10.07,-78.15,71.77,4.18
450,koubia,0.0,GN,1545417107,27.0,11.59,-11.89,81.98,7.76
451,turochak,68.0,RU,1545417107,69.0,52.26,87.12,6.97,4.97
452,zavetnoye,88.0,RU,1545417107,91.0,47.12,43.89,23.71,12.01
453,kemin,0.0,KG,1545417107,41.0,42.79,75.7,-10.05,1.95
454,bernardino de campos,32.0,BR,1545417107,66.0,-23.01,-49.48,83.96,5.41
455,ambon,90.0,FR,1545415200,100.0,47.55,-2.56,55.4,13.87
456,zhigansk,0.0,RU,1545417108,31.0,66.77,123.37,-21.16,8.21
457,las vegas,1.0,US,1545415080,44.0,36.17,-115.15,55.94,2.39
458,skerries,75.0,IE,1545413400,76.0,53.58,-6.11,48.2,9.17
459,san quintin,68.0,PH,1545417108,91.0,17.54,120.52,70.33,2.39
460,pasighat,12.0,IN,1545417108,77.0,28.06,95.33,50.66,1.95
461,half moon bay,90.0,US,1545415620,93.0,37.46,-122.43,57.2,13.69
462,saint-augustin,92.0,FR,1545415200,87.0,44.83,-0.61,57.2,11.41
463,buala,56.0,SB,1545417109,100.0,-8.15,159.59,79.46,2.17
464,sao joao da barra,0.0,BR,1545415200,55.0,-21.64,-41.05,89.6,9.17
465,lapi,88.0,EE,1545414600,85.0,57.91,26.99,15.8,9.17
466,marsa matruh,40.0,EG,1545411600,67.0,31.35,27.25,60.8,5.82
467,alyangula,8.0,AU,1545415200,79.0,-13.85,136.42,84.2,8.05
468,saleaula,,,,,,,,
469,karaton,40.0,ID,1545415200,78.0,-6.34,106.1,78.8,4.7
470,aswan,0.0,EG,1545411600,34.0,24.09,32.9,64.4,10.29
471,merritt island,75.0,US,1545415380,76.0,28.54,-80.67,64.76,20.8
472,roald,0.0,NO,1545414600,52.0,62.58,6.12,41.0,16.11
473,dhankuta,64.0,NP,1545417110,98.0,26.98,87.34,50.44,1.72
474,corinto,32.0,BR,1545417110,64.0,-18.36,-44.46,90.04,2.06
475,palmer,90.0,US,1545415080,87.0,61.6,-149.11,15.08,3.36
476,gorontalo,32.0,ID,1545417111,98.0,0.54,123.06,72.44,1.83
477,hailar,76.0,CN,1545417111,83.0,49.2,119.7,9.67,11.23
478,cervo,75.0,BR,1545411600,94.0,-22.19,-46.24,71.6,4.7
479,tiksi,0.0,RU,1545417111,39.0,71.64,128.87,-25.66,10.45
480,clyde river,5.0,CA,1545415200,75.0,70.47,-68.59,-20.21,5.82
481,sao domingos,20.0,BR,1545417111,45.0,-13.4,-46.32,86.93,3.18
482,namibe,12.0,AO,1545417111,100.0,-15.19,12.15,72.31,7.43
483,gazli,56.0,UZ,1545417112,72.0,40.13,63.45,29.92,12.12
484,lyubokhna,92.0,RU,1545417112,94.0,53.51,34.39,24.29,10.11
485,antigonish,1.0,CA,1545415200,80.0,45.62,-61.99,35.6,5.82
486,achisay,,,,,,,,
487,eldikan,,,,,,,,
488,olbia,0.0,IT,1545416400,81.0,40.92,9.49,51.8,9.17
489,birecik,0.0,TR,1545416400,87.0,37.03,37.98,46.4,2.95
490,namie,0.0,JP,1545417112,100.0,37.52,140.86,41.48,8.55
491,berlevag,0.0,NO,1545417113,100.0,70.86,29.09,6.83,6.2
492,sembe,,,,,,,,
493,paka,44.0,HR,1545415200,100.0,45.29,18.06,30.2,6.93
494,severo-kurilsk,64.0,RU,1545417113,100.0,50.68,156.12,27.13,20.74
495,llanes,36.0,ES,1545417113,80.0,43.42,-4.75,47.02,2.06
496,beloha,100.0,MG,1545417113,74.0,-25.17,45.06,76.58,10.45
497,tacna,20.0,PE,1545415200,47.0,-18.01,-70.25,78.8,13.87
498,fevralsk,,,,,,,,
499,tanout,36.0,NE,1545417114,31.0,14.97,8.88,68.03,11.68
500,vestmanna,92.0,FO,1545414600,87.0,62.16,-7.17,42.8,4.7
501,korla,,,,,,,,
502,shingu,100.0,JP,1545417114,100.0,33.72,135.99,62.86,17.72
503,elat,48.0,CM,1545417114,72.0,2.91,11.16,75.46,2.62
504,morant bay,20.0,JM,1545411600,66.0,17.88,-76.41,86.0,8.05
505,kirishi,88.0,RU,1545417114,78.0,59.45,32.01,11.33,6.98
506,wasilla,90.0,US,1545415080,87.0,61.58,-149.44,15.08,3.36
507,ostrovnoy,36.0,RU,1545417115,86.0,68.05,39.51,10.57,9.44
508,bathsheba,75.0,BB,1545415200,70.0,13.22,-59.52,84.2,17.22
509,aleksandrovskiy zavod,56.0,RU,1545417115,76.0,50.92,117.94,2.96,2.62
510,nchelenge,92.0,ZM,1545417115,100.0,-9.35,28.74,64.21,2.84
511,ambodifototra,,,,,,,,
512,srednekolymsk,24.0,RU,1545417115,51.0,67.46,153.71,-30.52,2.84
513,harlingen,1.0,US,1545414900,19.0,26.19,-97.7,69.98,4.74
514,at-bashi,48.0,KG,1545417116,54.0,41.17,75.81,-10.41,1.72
515,newport,75.0,GB,1545414600,87.0,51.59,-3,51.8,12.75
516,santiago de cao,75.0,PE,1545415200,83.0,-7.96,-79.24,73.4,13.87
517,beausejour,90.0,CA,1545415200,78.0,50.06,-96.51,12.2,17.22
518,launceston,36.0,AU,1545415200,93.0,-41.43,147.14,48.2,8.05
519,asau,,,,,,,,
520,amot,90.0,NO,1545414600,86.0,59.57,7.99,30.2,5.82
521,shache,0.0,CN,1545417117,70.0,38.42,77.24,10.84,5.53
522,pangnirtung,20.0,CA,1545415200,84.0,66.15,-65.72,-2.21,2.84
523,omsukchan,64.0,RU,1545417117,81.0,62.53,155.8,-14.82,2.62
524,ekhabi,12.0,RU,1545417117,88.0,53.51,142.97,11.96,9.66
525,nenjiang,80.0,CN,1545417117,67.0,49.17,125.23,-1.23,3.74
526,kattivakkam,40.0,IN,1545415200,83.0,13.22,80.32,80.6,9.17
527,kambam,8.0,ID,1545417118,100.0,5.25,96.86,79.19,5.41
528,sabha,20.0,LY,1545417118,53.0,27.03,14.43,52.51,7.76
529,moron,20.0,VE,1545417118,64.0,10.49,-68.2,83.24,3.18
530,machiques,8.0,VE,1545417118,45.0,10.06,-72.55,86.53,4.41
531,kongolo,56.0,CD,1545417118,82.0,-5.39,27,74.92,2.62
532,arvika,75.0,SE,1545414600,86.0,59.65,12.59,26.6,12.75
533,portland,90.0,US,1545415200,89.0,45.52,-122.67,37.94,5.82
534,daru,0.0,SL,1545417119,30.0,7.99,-10.85,91.93,4.97
535,praia da vitoria,20.0,PT,1545415200,88.0,38.73,-27.07,64.4,13.91
536,safwah,,,,,,,,
537,mukhen,12.0,RU,1545417119,77.0,48.19,136.14,4.36,2.39
538,nykobing,,,,,,,,
539,casablanca,0.0,MA,1545415200,72.0,33.6,-7.62,60.8,10.29
540,shellbrook,75.0,CA,1545415200,80.0,53.22,-106.39,33.8,8.21
541,kurumkan,20.0,RU,1545417119,56.0,54.33,110.32,-14.28,3.4
542,trairi,24.0,BR,1545417120,100.0,-3.28,-39.27,81.53,18.28
543,baiao,36.0,BR,1545416838,72.0,-2.79,-49.67,87.07,2.84
544,birao,0.0,CF,1545417120,28.0,10.3,22.78,72.94,8.43
545,yangambi,76.0,CD,1545417120,46.0,0.77,24.47,84.46,3.18
546,sitka,0.0,US,1545417120,33.0,37.17,-99.65,48.73,6.76
547,fukue,75.0,JP,1545415200,93.0,35.03,136.69,48.2,16.11
548,san rafael del sur,40.0,NI,1545415200,46.0,11.85,-86.44,89.6,18.34
549,sehithwa,8.0,BW,1545417120,36.0,-20.47,22.7,88.69,13.35
550,bima,8.0,ID,1545417121,100.0,-8.45,118.73,73.93,2.39
551,christchurch,20.0,NZ,1545415200,93.0,-43.53,172.64,51.8,2.24
552,solovetskiy,,,,,,,,
553,yicheng,92.0,CN,1545417121,98.0,31.71,112.27,45.04,9.55
554,egvekinot,68.0,RU,1545417121,37.0,66.32,-179.17,-25.35,2.51
555,hermon,92.0,GB,1545414600,100.0,51.96,-4.61,50.0,23.04
556,avera,90.0,US,1545416100,95.0,33.19,-82.53,53.96,11.41
557,vestmannaeyjar,0.0,IS,1545415200,80.0,63.44,-20.27,35.6,3.36
558,adrar,0.0,DZ,1545415200,25.0,27.87,-0.29,66.2,12.75
559,lujan,0.0,AR,1545417122,16.0,-46.57,-67.67,83.38,13.47
560,achutupo,,,,,,,,
561,andenes,,,,,,,,
562,constitucion,5.0,MX,1545414480,23.0,23.99,-104.67,53.6,3.85
563,smoky lake,92.0,CA,1545417122,90.0,54.11,-112.47,25.33,25.1
564,chapada dos guimaraes,75.0,BR,1545415200,57.0,-15.46,-55.75,80.6,11.41
565,pomabamba,48.0,PE,1545417123,68.0,-8.82,-77.46,58.09,2.28
566,riyadh,0.0,SA,1545415200,51.0,24.63,46.72,59.0,4.7
567,kailua,90.0,US,1545415440,97.0,21.39,-157.74,71.06,6.93
568,camposampiero,90.0,IT,1545416400,100.0,45.57,11.93,37.4,2.24
569,sinkat,,,,,,,,
570,peleduy,24.0,RU,1545417123,42.0,59.63,112.75,-6.0,5.19
571,yerbogachen,32.0,RU,1545417123,45.0,61.28,108.01,-15.72,6.53
572,russell,12.0,AR,1545417123,57.0,-33.01,-68.8,69.38,5.3
573,lebedinyy,68.0,RU,1545417124,73.0,58.52,125.52,-0.42,3.29
574,catabola,68.0,AO,1545417124,99.0,-12.14,17.29,64.34,2.28
575,villa carlos paz,20.0,AR,1545415200,42.0,-31.42,-64.5,80.6,6.93
576,toulon,90.0,US,1545416100,83.0,41.09,-89.86,35.24,14.99
577,rio gallegos,75.0,AR,1545415200,28.0,-51.62,-69.22,69.8,36.91
578,nurota,88.0,UZ,1545415200,60.0,40.56,65.69,41.0,2.24
579,mardin,0.0,TR,1545415200,87.0,37.32,40.72,42.8,4.7
580,beringovskiy,8.0,RU,1545417124,100.0,63.05,179.32,-15.99,15.03
581,ulaanbaatar,75.0,MN,1545415200,77.0,47.92,106.92,-2.21,6.71
582,madimba,40.0,CM,1545411600,79.0,4.42,9.93,84.2,2.24
583,bayir,0.0,TR,1545414600,93.0,37.27,28.22,42.8,3.36
584,lahij,100.0,YE,1545417125,84.0,13.06,44.88,70.06,2.51
